[
  {
    "id": "cache-01",
    "name": "Lecker Brötchen",
    "beschreibung": "Bäckerei an der Grünstraße 2 in Schwerte.",
    "latitude": 51.4468606,
    "longitude": 7.5828795,
    "codewort": "Brötchen"
  },
  {
    "id": "cache-02",
    "name": "Der Strang",
    "beschreibung": "Testpunkt – Der Strang.",
    "latitude": 51.44344,
    "longitude": 7.586905,
    "codewort": "Strang"
  },
  {
    "id": "cache-03",
    "name": "Doktor Zahn",
    "beschreibung": "Testpunkt – Doktor Zahn.",
    "latitude": 51.4434368,
    "longitude": 7.5869054,
    "codewort": "Zahn"
  },
  {
    "id": "cache-04",
    "name": "Volme Brücke",
    "beschreibung": "Brücke über die Volme.",
    "latitude": 51.35144,
    "longitude": 7.484669,
    "codewort": "Wasser"
  },
  {
    "id": "cache-05",
    "name": "Blauregen",
    "beschreibung": "Beim Blauregen.",
    "latitude": 51.3897,
    "longitude": 7.7018,
    "codewort": "Giftig"
  },
  {
    "id": "cache-06",
    "name": "Mülleimer",
    "beschreibung": "Am Mülleimer auf dem Schulgelände.",
    "latitude": 51.389567,
    "longitude": 7.702367,
    "codewort": "Magnet"
  },
  {
    "id": "cache-08",
    "name": "Sporthalle",
    "beschreibung": "An der Sporthalle.",
    "codewort": "Fitness",
    "latitude": 51.3891428,
    "longitude": 7.7028122
  },
  {
    "id": "cache-09",
    "name": "Fahnenmast",
    "beschreibung": "Am Fahnenmast.",
    "latitude": 51.388833,
    "longitude": 7.703033,
    "codewort": "Stange"
  },
  {
    "id": "cache-10",
    "name": "Klettergerüst",
    "beschreibung": "Am Klettergerüst.",
    "codewort": "Orange",
    "latitude": 51.3889,
    "longitude": 7.701883
  },
  {
    "id": "cache-11",
    "name": "Stadion",
    "beschreibung": "Im Stadion.",
    "latitude": 51.39,
    "longitude": 7.70255,
    "codewort": "Weitsprung"
  },
  {
    "id": "cache-12",
    "name": "TTPlatte",
    "beschreibung": "An der Tischtennisplatte.",
    "latitude": 51.389267,
    "longitude": 7.701167,
    "codewort": "Ping"
  },
  {
    "id": "cache-13",
    "name": "Rondell",
    "beschreibung": "Am Rondell.",
    "latitude": 51.38965,
    "longitude": 7.700967,
    "codewort": "Rund"
  },
  {
    "id": "cache-14",
    "name": "Herzilein",
    "beschreibung": "Liebe auf einem Stamm",
    "codewort": "Stumpf",
    "latitude": 51.388966,
    "longitude": 7.702127
  }
]